[
{"SITE_CODE":"SITE_57","SITE_NAME":"亳州洪河大桥东北角","LONGOTUDE":"115.766166","LATITUDE":"33.895735"},
{"SITE_CODE":"SITE_58","SITE_NAME":"药都路与307国道东南以南500米","LONGOTUDE":"115.8194","LATITUDE":"33.842199"},
{"SITE_CODE":"SITE_90","SITE_NAME":"芍花小区","LONGOTUDE":"115.733575","LATITUDE":"33.851763"},
{"SITE_CODE":"SITE_92","SITE_NAME":"养生大道与神医路西南以南100米","LONGOTUDE":"115.775477","LATITUDE":"33.821844"},
{"SITE_CODE":"SITE_93","SITE_NAME":"文帝路与三曹路西北角","LONGOTUDE":"115.787981","LATITUDE":"33.867225"},
{"SITE_CODE":"9050","SITE_NAME":"五中对面污水处理站","LONGOTUDE":"115.805305","LATITUDE":"33.89318"},
{"SITE_CODE":"9055","SITE_NAME":"恒大城以北污水处理站","LONGOTUDE":"115.761207","LATITUDE":"33.838451"},
{"SITE_CODE":"9057","SITE_NAME":"钱楼水源井","LONGOTUDE":"115.760704","LATITUDE":"33.813664"},
{"SITE_CODE":"9051","SITE_NAME":"文帝路与振谯路西北角小区","LONGOTUDE":"115.755116","LATITUDE":"33.867742"},
{"SITE_CODE":"EQ_JYBZ","SITE_NAME":"应急加压泵站","LONGOTUDE":"115.796296","LATITUDE":"33.773845"},
{"SITE_CODE":"SITE_60","SITE_NAME":"五中南门东北以东150米","LONGOTUDE":"115.807676","LATITUDE":"33.893349"},
{"SITE_CODE":"EQ_GBSC","SITE_NAME":"涡北水厂","LONGOTUDE":"115.799879","LATITUDE":"33.906106"},
{"SITE_CODE":"SITE_42","SITE_NAME":"西一环路与北一环路以北500米路口西北角","LONGOTUDE":"115.767046","LATITUDE":"33.917427"},
{"SITE_CODE":"SITE_44","SITE_NAME":"汤陵路与铁路以西300米路口西北角","LONGOTUDE":"115.8064529","LATITUDE":"33.88892"},
{"SITE_CODE":"SITE_45","SITE_NAME":"城父路与张良路西北以西100米","LONGOTUDE":"115.737236","LATITUDE":"33.851036"},
{"SITE_CODE":"SITE_46","SITE_NAME":"利辛路与桐乡路东北角","LONGOTUDE":"115.768088","LATITUDE":"33.874306"},
{"SITE_CODE":"SITE_48","SITE_NAME":"丁家坑东","LONGOTUDE":"115.781231","LATITUDE":"33.884407"},
{"SITE_CODE":"SITE_50","SITE_NAME":"交通路与建安路西北角","LONGOTUDE":"115.802942","LATITUDE":"33.87165"},
{"SITE_CODE":"SITE_51","SITE_NAME":"交通路与亳涡路东北角","LONGOTUDE":"115.809931","LATITUDE":"33.87005"},
{"SITE_CODE":"SITE_05","SITE_NAME":"亳菊路与汤王大道东南以东100米","LONGOTUDE":"115.777941","LATITUDE":"33.817007"},
{"SITE_CODE":"SITE_56","SITE_NAME":"芍花路与汤王大道东南角","LONGOTUDE":"115.772611","LATITUDE":"33.854038"},
{"SITE_CODE":"SITE_59","SITE_NAME":"药都路与建安路东南以南100米","LONGOTUDE":"115.799251","LATITUDE":"33.84411"},
{"SITE_CODE":"SITE_28","SITE_NAME":"银杏路与药王路东南角","LONGOTUDE":"115.757924","LATITUDE":"33.80384"},
{"SITE_CODE":"SITE_30","SITE_NAME":"合欢路与张良路西北角","LONGOTUDE":"115.736791","LATITUDE":"33.784939"},
{"SITE_CODE":"SITE_34","SITE_NAME":"花戏楼街大地桥西南角","LONGOTUDE":"115.780031","LATITUDE":"33.891548"},
{"SITE_CODE":"SITE_71","SITE_NAME":"亳芜路与希夷大道西南角","LONGOTUDE":"115.792235","LATITUDE":"33.771646"},
{"SITE_CODE":"SITE_68","SITE_NAME":"槐花路与汤王大道西南角","LONGOTUDE":"115.771025","LATITUDE":"33.789807"},
{"SITE_CODE":"SITE_72","SITE_NAME":"茴香路与春华路路东南角","LONGOTUDE":"115.768501","LATITUDE":"33.780318"},
{"SITE_CODE":"SITE_91","SITE_NAME":"北一环与亳商公路西北角","LONGOTUDE":"115.779443","LATITUDE":"33.91521"},
{"SITE_CODE":"SITE_94","SITE_NAME":"州后街洲东小学西北以西50米","LONGOTUDE":"115.790546","LATITUDE":"33.881515"},
{"SITE_CODE":"SITE_77","SITE_NAME":"光华路与西一环西南以西200米","LONGOTUDE":"115.761495","LATITUDE":"33.858404"},
{"SITE_CODE":"SITE_79","SITE_NAME":"汤王大道与月季路西南以西200米","LONGOTUDE":"115.769598","LATITUDE":"33.775787"},
{"SITE_CODE":"SITE_4","SITE_NAME":"文帝路与庄周路西南角","LONGOTUDE":"115.74396","LATITUDE":"33.866738"},
{"SITE_CODE":"SITE_10","SITE_NAME":"芍花路与庄周路东南角","LONGOTUDE":"115.744265","LATITUDE":"33.853993"},
{"SITE_CODE":"SITE_17","SITE_NAME":"紫苑路与建安路西北以西200米","LONGOTUDE":"115.797193","LATITUDE":"33.830879"},
{"SITE_CODE":"SITE_12","SITE_NAME":"养生大道与张良路东北角","LONGOTUDE":"115.737519","LATITUDE":"33.8237"},
{"SITE_CODE":"SITE_80","SITE_NAME":"汤王大道与合欢路西北角","LONGOTUDE":"115.77099","LATITUDE":"33.785172"},
{"SITE_CODE":"SITE_14","SITE_NAME":"药都大道与振谯路东南角以东","LONGOTUDE":"115.753787","LATITUDE":"33.846813"},
{"SITE_CODE":"SITE_15","SITE_NAME":"杜仲路与研发路东北角","LONGOTUDE":"115.74996","LATITUDE":"33.836847"},
{"SITE_CODE":"SITE_96","SITE_NAME":"交通路与魏武大道东北以北100米（药都银行门前）","LONGOTUDE":"115.79396","LATITUDE":"33.874996"},
{"SITE_CODE":"SITE_21","SITE_NAME":"杜仲路与宋汤河路西北","LONGOTUDE":"115.769993","LATITUDE":"33.836805"},
{"SITE_CODE":"SITE_22","SITE_NAME":"养生大道与振谯路东北以东","LONGOTUDE":"115.755189","LATITUDE":"33.823606"},
{"SITE_CODE":"SITE_23","SITE_NAME":"紫苑路与宋汤河路西北","LONGOTUDE":"115.766166","LATITUDE":"33.831944"},
{"SITE_CODE":"SITE_35","SITE_NAME":"酒城大道铁路桥东北以东500米","LONGOTUDE":"115.81056","LATITUDE":"33.79526"},
{"SITE_CODE":"SITE_36","SITE_NAME":"酒城大道与307国道西南以西200米","LONGOTUDE":"115.846241","LATITUDE":"33.79406"},
{"SITE_CODE":"SITE_37","SITE_NAME":"养生大道与文采路东南角","LONGOTUDE":"115.825669","LATITUDE":"33.821282"},
{"SITE_CODE":"SITE_70","SITE_NAME":"酒城大道与药王路东北角","LONGOTUDE":"115.756177","LATITUDE":"33.794885"},
{"SITE_CODE":"9058","SITE_NAME":"人民医院北院加压泵房旁","LONGOTUDE":"115.787006","LATITUDE":"33.876637"},
{"SITE_CODE":"EQ_SSC","SITE_NAME":"三水厂","LONGOTUDE":"115.770936","LATITUDE":"33.834792"},
{"SITE_CODE":"EQ_YSC","SITE_NAME":"一水厂","LONGOTUDE":"115.768331","LATITUDE":"33.884227"},
{"SITE_CODE":"SITE_02","SITE_NAME":"光华路与科技路西南角","LONGOTUDE":"115.758701","LATITUDE":"33.858254"},
{"SITE_CODE":"SITE_11","SITE_NAME":"魏武大道公安局南路口东北角","LONGOTUDE":"115.794355","LATITUDE":"33.841494"},
{"SITE_CODE":"SITE_07","SITE_NAME":"杜仲路与张良路东北角","LONGOTUDE":"115.738444","LATITUDE":"33.837342"},
{"SITE_CODE":"SITE_08","SITE_NAME":"杜仲路与张良路西南角","LONGOTUDE":"115.737182","LATITUDE":"33.837177"},
{"SITE_CODE":"SITE_66","SITE_NAME":"银杏路与魏武大道东北角","LONGOTUDE":"115.794355","LATITUDE":"33.80459"},
{"SITE_CODE":"SITE_67","SITE_NAME":"牡丹路与魏武大道东北角","LONGOTUDE":"115.794067","LATITUDE":"33.813109"},
{"SITE_CODE":"SITE_27","SITE_NAME":"杜仲路与嵇康路西南角","LONGOTUDE":"115.789203","LATITUDE":"33.836385"},
{"SITE_CODE":"SITE_16","SITE_NAME":"长江路与仙翁路东北角","LONGOTUDE":"115.778998","LATITUDE":"33.841187"},
{"SITE_CODE":"SITE_29","SITE_NAME":"桐花路与漆园路东南以东50米","LONGOTUDE":"115.767168","LATITUDE":"33.827093"},
{"SITE_CODE":"SITE_18","SITE_NAME":"桐花路与十八中北门东南以东50米","LONGOTUDE":"115.781329","LATITUDE":"33.82677"},
{"SITE_CODE":"SITE_26","SITE_NAME":"牡丹路与仙翁路东南角","LONGOTUDE":"115.781168","LATITUDE":"33.812284"},
{"SITE_CODE":"SITE_33","SITE_NAME":"银杏路与希夷大道东北角","LONGOTUDE":"115.784968","LATITUDE":"33.804335"},
{"SITE_CODE":"SITE_19","SITE_NAME":"城父路与科技路东南以东200米","LONGOTUDE":"115.759806","LATITUDE":"33.850579"},
{"SITE_CODE":"SITE_38","SITE_NAME":"亳芍路与汤王大道西南角","LONGOTUDE":"115.771107","LATITUDE":"33.808654"},
{"SITE_CODE":"SITE_32","SITE_NAME":"茴香路与张良路西南角","LONGOTUDE":"115.737258","LATITUDE":"33.780251"},
{"SITE_CODE":"SITE_47","SITE_NAME":"亳芜路与庄周路西南角","LONGOTUDE":"115.743726","LATITUDE":"33.771315"},
{"SITE_CODE":"SITE_55","SITE_NAME":"亳芜路与漆园路东南角以东100米","LONGOTUDE":"115.763561","LATITUDE":"33.771225"},
{"SITE_CODE":"SITE_69","SITE_NAME":"茴香路与仙翁路东北角","LONGOTUDE":"115.783755","LATITUDE":"33.780468"},
{"SITE_CODE":"SITE_74","SITE_NAME":"养生大道与铁路桥东南","LONGOTUDE":"115.805332","LATITUDE":"33.821717"},
{"SITE_CODE":"9052","SITE_NAME":"汤王大道与酒城大道西南6号水源井内","LONGOTUDE":"115.770567","LATITUDE":"33.7946"},
{"SITE_CODE":"SITE_78","SITE_NAME":"西马园中心路与西一环东南角","LONGOTUDE":"115.763779","LATITUDE":"33.85719"},
{"SITE_CODE":"SITE_84","SITE_NAME":"药都大道与亳涡路东北以北100米","LONGOTUDE":"115.816974","LATITUDE":"33.845392"},
{"SITE_CODE":"SITE_95","SITE_NAME":"文帝路与振谯路西北角","LONGOTUDE":"115.755027","LATITUDE":"33.866723"},
{"SITE_CODE":"9053","SITE_NAME":"文帝路与汤王大道东南以南100米","LONGOTUDE":"115.772849","LATITUDE":"33.865584"},
{"SITE_CODE":"9056","SITE_NAME":"华佗神经病医院（北院）","LONGOTUDE":"115.800247","LATITUDE":"33.917757"},
{"SITE_CODE":"SITE_01","SITE_NAME":"利辛路与研发路西北角","LONGOTUDE":"115.749853","LATITUDE":"33.874456"},
{"SITE_CODE":"SITE_03","SITE_NAME":"利辛路与涡阳路西南角","LONGOTUDE":"115.776604","LATITUDE":"33.873834"},
{"SITE_CODE":"SITE_13","SITE_NAME":"市政府东","LONGOTUDE":"115.787941","LATITUDE":"33.851756"},
{"SITE_CODE":"SITE_09","SITE_NAME":"药都大道与张良路东南角","LONGOTUDE":"115.737559","LATITUDE":"33.846813"},
{"SITE_CODE":"SITE_20","SITE_NAME":"光明路与张良路东南以东100米","LONGOTUDE":"115.737218","LATITUDE":"33.862035"},
{"SITE_CODE":"SITE_24","SITE_NAME":"亳菊路与宋汤河路西北","LONGOTUDE":"115.755642","LATITUDE":"33.818534"},
{"SITE_CODE":"SITE_25","SITE_NAME":"光明路与西一环西南角","LONGOTUDE":"115.762303","LATITUDE":"33.862324"},
{"SITE_CODE":"SITE_06","SITE_NAME":"中央花园旁希夷大道西南","LONGOTUDE":"115.785048","LATITUDE":"33.819797"},
{"SITE_CODE":"SITE_31","SITE_NAME":"亳芍路与宋汤河东南以东20米","LONGOTUDE":"115.751164","LATITUDE":"33.810994"},
{"SITE_CODE":"SITE_39","SITE_NAME":"百合路与汤王大道东北角","LONGOTUDE":"115.771484","LATITUDE":"33.799618"},
{"SITE_CODE":"SITE_40","SITE_NAME":"北一环北公安局谯城分局以西500米","LONGOTUDE":"115.773685","LATITUDE":"33.915379"},
{"SITE_CODE":"SITE_41","SITE_NAME":"北一环华佗中医院涡北院区南门以东","LONGOTUDE":"115.80305","LATITUDE":"33.91533"},
{"SITE_CODE":"SITE_43","SITE_NAME":"古泉路红旗桥东北角","LONGOTUDE":"115.782609","LATITUDE":"33.896248"},
{"SITE_CODE":"SITE_61","SITE_NAME":"和平路与魏武大道西北角公园亭旁","LONGOTUDE":"115.794701","LATITUDE":"33.886632"},
{"SITE_CODE":"SITE_49","SITE_NAME":"亚珠加油站","LONGOTUDE":"115.761315","LATITUDE":"33.88377"},
{"SITE_CODE":"SITE_52","SITE_NAME":"火车站广场西南角","LONGOTUDE":"115.803895","LATITUDE":"33.854181"},
{"SITE_CODE":"SITE_53","SITE_NAME":"牡丹路与漆园路西南以西200米","LONGOTUDE":"115.763812","LATITUDE":"33.813529"},
{"SITE_CODE":"SITE_54","SITE_NAME":"魏武美食广场北门以东20米","LONGOTUDE":"115.791808","LATITUDE":"33.864235"},
{"SITE_CODE":"SITE_62","SITE_NAME":"幼师东北角","LONGOTUDE":"115.833287","LATITUDE":"33.815974"},
{"SITE_CODE":"SITE_63","SITE_NAME":"火神路西边尽头路南","LONGOTUDE":"115.812644","LATITUDE":"33.808729"},
{"SITE_CODE":"SITE_64","SITE_NAME":"白合路与文采路交叉口西南角","LONGOTUDE":"115.825472","LATITUDE":"33.800135"},
{"SITE_CODE":"SITE_65","SITE_NAME":"酒城大道与魏武大道西南以西300米","LONGOTUDE":"115.790151","LATITUDE":"33.79493"},
{"SITE_CODE":"SITE_83","SITE_NAME":"药都大道与铁路桥东北以东150米","LONGOTUDE":"115.805449","LATITUDE":"33.844838"},
{"SITE_CODE":"SITE_81","SITE_NAME":"汤王大道与酒城大道西南以西50米","LONGOTUDE":"115.77064","LATITUDE":"33.79454"},
{"SITE_CODE":"SITE_82","SITE_NAME":"柴胡路与汤王大道西南角","LONGOTUDE":"115.772094","LATITUDE":"33.840108"},
{"SITE_CODE":"SITE_85","SITE_NAME":"药王大道与合欢路东南角","LONGOTUDE":"115.756446","LATITUDE":"33.784534"},
{"SITE_CODE":"SITE_86","SITE_NAME":"张良路与槐花路东南角","LONGOTUDE":"115.737586","LATITUDE":"33.789526"},
{"SITE_CODE":"SITE_87","SITE_NAME":"亳涡路与魏园路西南角","LONGOTUDE":"115.809267","LATITUDE":"33.85656"},
{"SITE_CODE":"SITE_88","SITE_NAME":"紫苑路与望州路交叉口路北50米","LONGOTUDE":"115.73018","LATITUDE":"33.831494"},
{"SITE_CODE":"SITE_89","SITE_NAME":"柴胡路与张良路西南以西200米","LONGOTUDE":"115.730539","LATITUDE":"33.841299"},
{"SITE_CODE":"9059","SITE_NAME":"七里庙水源井","LONGOTUDE":"115.736867","LATITUDE":"33.785644"}

]